fulcrum_id,FacilityType,latitude,longitude
france_sampledata 9.jpg,europe ,46.4938888888889,-1.79208888888889
france_sampledata 5.jpg,street ocean europe ,46.4925083333333,-1.77652777777778
france_sampledata 10.jpg,ocean europe ,46.4963305555556,-1.79470555555556
france_sampledata 4.jpg,street islamic europe ,46.4927638888889,-1.77645833333333
france_sampledata 6.jpg,street islamic africa europe ,46.4968111111111,-1.77754166666667
